{"type": "FeatureCollection","features": [{ "type": "Feature", "properties": { "org": "FA","nombre": "Alfonsín", "direccion": "Libres del Sur 121 (e/ Remedios de Escalada y Soler)", "telefono": "02241-42-3646"}, "geometry": { "type": "Point", "coordinates":   [ -58.014183000000003, -35.575201999999997 ], } },
{ "type": "Feature", "properties": { "org": "FA","nombre": "Aprile", "direccion": "Lastra 115 (e/ Belgrano y Lincoln)", "telefono": "02241-43-6215"}, "geometry": { "type": "Point", "coordinates":   [ -58.014746000000002, -35.577697999999998 ], } },
{ "type": "Feature", "properties": { "org": "FA","nombre": "Belgrano", "direccion": "Belgrano 649 ( Esq. Correa)", "telefono": "02241-43-6964"}, "geometry": { "type": "Point", "coordinates":   [ -58.016598999999999, -35.565373000000001 ], } },
{ "type": "Feature", "properties": { "org": "FA","nombre": "Bellingeri", "direccion": "Av. H. Yrigoyen 78 (e/ Soler y Arenales)", "telefono": "02241-43-0211"}, "geometry": { "type": "Point", "coordinates":   [ -58.009106000000003, -35.575325999999997 ], } },
{ "type": "Feature", "properties": { "org": "FA","nombre": "Cangialosi", "direccion": "Av. H. Yrigoyen 222 (e/ Garay y Belbezé)", "telefono": "02241-43-6931"}, "geometry": { "type": "Point", "coordinates":   [ -58.009014999999998, -35.572519000000000 ], } },
{ "type": "Feature", "properties": { "org": "FA","nombre": "Chascomús", "direccion": "Lastra 350 (Esq. Moreno)", "telefono": "02241-42-2913"}, "geometry": { "type": "Point", "coordinates":   [ -58.010936000000001, -35.577452999999998 ], } },
{ "type": "Feature", "properties": { "org": "FA","nombre": "Cramer", "direccion": "Cramer 70 (e/ Moreno y Castelli)", "telefono": "02241-43-3457"}, "geometry": { "type": "Point", "coordinates":   [ -58.010236999999996, -35.577981999999999 ], } },
{ "type": "Feature", "properties": { "org": "FA","nombre": "Del Norte", "direccion": "Ombú 102 (e/ Alvear y J. Quintana)", "telefono": "02241-42-6455"}, "geometry": { "type": "Point", "coordinates":   [ -58.014929000000002, -35.558515000000000 ], } },
{ "type": "Feature", "properties": { "org": "FA","nombre": "Malena", "direccion": "Escribano 2 (Esq. Machado)", "telefono": "02241-42-5087"}, "geometry": { "type": "Point", "coordinates":   [ -58.009276000000000, -35.567321999999997 ], } },
{ "type": "Feature", "properties": { "org": "FA","nombre": "Moriset", "direccion": "Av. Pres. Alfonsín 591 (e/ Saavedra y Machado)", "telefono": "02241-43-6659"}, "geometry": { "type": "Point", "coordinates":   [ -58.006402999999999, -35.576624000000002 ], } },
{ "type": "Feature", "properties": { "org": "FA","nombre": "Oria", "direccion": "Libres del Sur 413 (Esq. Maipú)", "telefono": "02241-43-6450"}, "geometry": { "type": "Point", "coordinates":   [ -58.015163999999999, -35.569952999999998 ], } },
{ "type": "Feature", "properties": { "org": "FA","nombre": "Pasteur", "direccion": "Libres del Sur 302 (Esq. Mazzini)", "telefono": "02241-42-3382"}, "geometry": { "type": "Point", "coordinates":   [ -58.014659999999999, -35.571728999999998 ], } },
{ "type": "Feature", "properties": { "org": "FA","nombre": "Pozzi ", "direccion": "Rioja 28 (e/ Perón y Castelli)", "telefono": "02241-43-6060"}, "geometry": { "type": "Point", "coordinates":   [ -58.008561000000000, -35.581155000000003 ], } },
{ "type": "Feature", "properties": { "org": "FA","nombre": "Puyssegur", "direccion": "Libres del Sur 946 (Esq. Neuquén)", "telefono": "02241-42-5087"}, "geometry": { "type": "Point", "coordinates":   [ -58.016658000000000, -35.559663000000000 ], } },
{ "type": "Feature", "properties": { "org": "CP","nombre": "CIC 30 de Mayo Dr. Quintin", "direccion": "Barrio 30 de Mayo", "telefono": ""}, "geometry": { "type": "Point", "coordinates":   [ -58.010703,-35.551055 ], } },
{ "type": "Feature", "properties": { "org": "CP","nombre": "Unidad Sanitaria Barrio Jardín", "direccion": "Casalins e/ Misiones y Tucumán", "telefono": ""}, "geometry": { "type": "Point", "coordinates":   [ -58.013371,-35.560515], } },
{ "type": "Feature", "properties": { "org": "CP","nombre": "Unidad Sanitaria Barrio Iporá", "direccion": "Calle SN e/ I. Árabes y Perú", "telefono": ""}, "geometry": { "type": "Point", "coordinates":   [-57.993989,-35.568501], } },
{ "type": "Feature", "properties": { "org": "CP","nombre": "Unidad Sanitaria Barrio Roque Carranza", "direccion": "Juárez e/ Correa y 26 de Julio", "telefono": ""}, "geometry": { "type": "Point", "coordinates":   [-58.019202,-35.566097], } },
{ "type": "Feature", "properties": { "org": "CP","nombre": "Unidad Sanitaria Barrio El Porteño", "direccion": "Barrio El Porteño (calles sin nombre)", "telefono": ""}, "geometry": { "type": "Point", "coordinates":   [-57.970831,-35.575502], } },
{ "type": "Feature", "properties": { "org": "CP","nombre": "Unidad Sanitaria Barrio Gallo Blanco 'Baldomero Fernández Moreno'", "direccion": "Miramar e/ Chile y Díaz Vélez", "telefono": ""}, "geometry": { "type": "Point", "coordinates":   [-57.986036,-35.577715], } },
{ "type": "Feature", "properties": { "org": "HA","nombre": "Hogar de Ancianos Municipal 'Elena Herbert de Estefanell'", "direccion": "Los Cedros 124 e/ J.Quintana y Alvear", "telefono": "(02241) 430958"}, "geometry": { "type": "Point", "coordinates":   [-58.015735,-35.555321], } },
{ "type": "Feature", "properties": { "org": "HM","nombre": "Hospital Municipal San Vicente de Paúl", "direccion": "Av. Presidente Alfonsín e/ Irigoyen y Machado", "telefono": "(02241) 431330/39-431093"}, "geometry": { "type": "Point", "coordinates":   [-58.007838,-35.576502], } },
{ "type": "Feature", "properties": { "org": "CI","nombre": "Clínica Privada Chascomús", "direccion": "Castelli 23", "telefono": "02241-423365"}, "geometry": { "type": "Point", "coordinates":   [-58.010075,-35.577662], } }]}
